{
"type": "FeatureCollection",
"name": "indicator_3_3_1_hiv_aids_initiatives_nakuru",
"crs": { "type": "name", "properties": { "name": "urn:ogc:def:crs:OGC:1.3:CRS84" } },
"features": [
{ "type": "Feature", "properties": { "ID": 0, "NAME": "Love and Hope", "LOCATION": "Hekima", "ACTIVITY": "Home-based care, Counselling,HIV support Groups" }, "geometry": { "type": "Point", "coordinates": [ 36.084709596346116, -0.303692567903431 ] } },
{ "type": "Feature", "properties": { "ID": 0, "NAME": "Tears Drop Women Group", "LOCATION": "Chief's Camp Kaptembwa", "ACTIVITY": "AIDS awareness, supporting orphans" }, "geometry": { "type": "Point", "coordinates": [ 36.05060858479051, -0.296838989365984 ] } },
{ "type": "Feature", "properties": { "ID": 0, "NAME": "Jiinue Women Group", "LOCATION": "Gilani Estate", "ACTIVITY": "Support to infected and affected victims" }, "geometry": { "type": "Point", "coordinates": [ 36.053163534179696, -0.293683911612855 ] } },
{ "type": "Feature", "properties": { "ID": 0, "NAME": "Tawakal Muslim Self-Help Group", "LOCATION": "Filadelfia-Langalanga", "ACTIVITY": "Home Based Care & Farming" }, "geometry": { "type": "Point", "coordinates": [ 36.073395168387165, -0.303855974326596 ] } },
{ "type": "Feature", "properties": { "ID": 0, "NAME": "Senvinet", "LOCATION": "Kwa Buda Solai Rd", "ACTIVITY": "Awareness and Training on Environment and HIV\/Aids" }, "geometry": { "type": "Point", "coordinates": [ 36.107748160014985, -0.259395605735935 ] } },
{ "type": "Feature", "properties": { "ID": 0, "NAME": "Neema Home-based Care", "LOCATION": "Chief's Camp Free Area", "ACTIVITY": "Home Based care for infected victims" }, "geometry": { "type": "Point", "coordinates": [ 36.11851710295138, -0.292330348787466 ] } },
{ "type": "Feature", "properties": { "ID": 0, "NAME": "Ogiek Welfare Council", "LOCATION": "Nacha Plaza 3rd floor", "ACTIVITY": "Community Education" }, "geometry": { "type": "Point", "coordinates": [ 36.067993332737529, -0.284566349377607 ] } },
{ "type": "Feature", "properties": { "ID": 0, "NAME": "Blessed Women Aids Control", "LOCATION": "Nakuru Westl Dispensary", "ACTIVITY": "Home Based care and sale of household items." }, "geometry": { "type": "Point", "coordinates": [ 36.063023394279305, -0.293687045184846 ] } },
{ "type": "Feature", "properties": { "ID": 0, "NAME": "Thairira Widow Women Group", "LOCATION": null, "ACTIVITY": "Support through Tailoring, Soap Manufacture & Knitting" }, "geometry": { "type": "Point", "coordinates": [ 36.070249707728266, -0.303476456478519 ] } },
{ "type": "Feature", "properties": { "ID": 0, "NAME": "Masikilizano Women Group", "LOCATION": "Nanyuki Rd", "ACTIVITY": "Support to HIV\/AID affected persons through Tailoring" }, "geometry": { "type": "Point", "coordinates": [ 36.079352763194535, -0.302154872030875 ] } },
{ "type": "Feature", "properties": { "ID": 0, "NAME": "Nakuru Health Focused Women Group", "LOCATION": "Pondamali,Kanja Square", "ACTIVITY": "Home Based care & Awareness creation" }, "geometry": { "type": "Point", "coordinates": [ 36.063752675862183, -0.308341394267026 ] } },
{ "type": "Feature", "properties": { "ID": 0, "NAME": "Nakuru Youth Resource and Counselling", "LOCATION": "FPAK Building", "ACTIVITY": "Counselling, Facilitation & VCT Centre" }, "geometry": { "type": "Point", "coordinates": [ 36.076728034888589, -0.287110169033088 ] } },
{ "type": "Feature", "properties": { "ID": 0, "NAME": "Lanet Community and Care Support Group-ICROSS", "LOCATION": "Lanet", "ACTIVITY": "Care, Support & Education" }, "geometry": { "type": "Point", "coordinates": [ 36.130255354198198, -0.297846787674537 ] } },
{ "type": "Feature", "properties": { "ID": 0, "NAME": "Bondeni Community and Care support Group", "LOCATION": "Bondeni", "ACTIVITY": "Care, Support and Education" }, "geometry": { "type": "Point", "coordinates": [ 36.082530108006665, -0.293278585303975 ] } },
{ "type": "Feature", "properties": { "ID": 0, "NAME": "Kaptembwa community and Care support gruop", "LOCATION": "Kaptembwa", "ACTIVITY": "Care,Support & Education" }, "geometry": { "type": "Point", "coordinates": [ 36.047582799635393, -0.295715621490203 ] } },
{ "type": "Feature", "properties": { "ID": 0, "NAME": "Tears Group Kenya", "LOCATION": "RaceCourse", "ACTIVITY": "Education & Youth Mobilisation" }, "geometry": { "type": "Point", "coordinates": [ 36.073200580682169, -0.303934912264033 ] } },
{ "type": "Feature", "properties": { "ID": 0, "NAME": "Shuhuda Hai Self-Help Group", "LOCATION": "Dr. Arthur PCEA", "ACTIVITY": "Education, Farming and Knitting" }, "geometry": { "type": "Point", "coordinates": [ 36.07947403016869, -0.300411421651325 ] } },
{ "type": "Feature", "properties": { "ID": 0, "NAME": "Bontana Hotel", "LOCATION": "West  Road", "ACTIVITY": "Support & Accomodation" }, "geometry": { "type": "Point", "coordinates": [ 36.06641110315109, -0.28749889589898 ] } },
{ "type": "Feature", "properties": { "ID": 0, "NAME": "St Trizah Aid Orphanage", "LOCATION": "Near Kibowen Primary", "ACTIVITY": "Childcare, Education and Home Based care" }, "geometry": { "type": "Point", "coordinates": [ 36.053952651976573, -0.311746956818085 ] } },
{ "type": "Feature", "properties": { "ID": 0, "NAME": "Nakuru Youth-FANYA", "LOCATION": "General Hospital", "ACTIVITY": "Education and Clean-ups" }, "geometry": { "type": "Point", "coordinates": [ 36.070897085532678, -0.277889648779707 ] } },
{ "type": "Feature", "properties": { "ID": 0, "NAME": "Ambassodor of Hope-SWAK", "LOCATION": "Family  Finance Building", "ACTIVITY": "Education & Counselling" }, "geometry": { "type": "Point", "coordinates": [ 36.072867038181066, -0.284358081324925 ] } },
{ "type": "Feature", "properties": { "ID": 0, "NAME": "Block Community Self-Help Group", "LOCATION": "Muthaiti House", "ACTIVITY": "Education & Community Mobilisation" }, "geometry": { "type": "Point", "coordinates": [ 36.073872193880767, -0.283001908569668 ] } },
{ "type": "Feature", "properties": { "ID": 0, "NAME": "Partners for Progress", "LOCATION": "Giddo Plaza", "ACTIVITY": "Education,Research & Support" }, "geometry": { "type": "Point", "coordinates": [ 36.059963672927701, -0.287151899368954 ] } },
{ "type": "Feature", "properties": { "ID": 0, "NAME": "Tumaini Fadhili Cultural Group", "LOCATION": "FPAK Bulding", "ACTIVITY": "Home Based Care" }, "geometry": { "type": "Point", "coordinates": [ 36.076702933769468, -0.287025945808487 ] } },
{ "type": "Feature", "properties": { "ID": 0, "NAME": "Tuinuane Women Group", "LOCATION": "Gilani Estate", "ACTIVITY": null }, "geometry": { "type": "Point", "coordinates": [ 36.053070622165357, -0.293955985148218 ] } }
]
}
