{
"type": "FeatureCollection",
"name": "Polling Stations",
"crs": { "type": "name", "properties": { "name": "urn:ogc:def:crs:OGC:1.3:CRS84" } },
"features": [
{ "type": "Feature", "properties": { "ID": 0, "NAME": "Kenyatta Primary School", "REGVOTER97": 0, "REGVOTER02": 0, "REGVOTER07": 6238, "POLSTATION": null, "STAT_NR": 11, "MALE": 3899, "FEMALE": 2339 }, "geometry": { "type": "Point", "coordinates": [ 36.071346441059006, -0.294424070974597 ] } },
{ "type": "Feature", "properties": { "ID": 0, "NAME": "Baharini Primary School", "REGVOTER97": 0, "REGVOTER02": 0, "REGVOTER07": 5469, "POLSTATION": null, "STAT_NR": 13, "MALE": 3157, "FEMALE": 2312 }, "geometry": { "type": "Point", "coordinates": [ 36.080021798485596, -0.298298612287256 ] } },
{ "type": "Feature", "properties": { "ID": 0, "NAME": "Kimathi Primary School", "REGVOTER97": 0, "REGVOTER02": 0, "REGVOTER07": 6985, "POLSTATION": null, "STAT_NR": 15, "MALE": 3814, "FEMALE": 3171 }, "geometry": { "type": "Point", "coordinates": [ 36.079737801874565, -0.305239682004318 ] } },
{ "type": "Feature", "properties": { "ID": 0, "NAME": "St. Xavier Primary School", "REGVOTER97": 0, "REGVOTER02": 0, "REGVOTER07": 6318, "POLSTATION": null, "STAT_NR": 10, "MALE": 3685, "FEMALE": 2633 }, "geometry": { "type": "Point", "coordinates": [ 36.071962336949795, -0.289573777542078 ] } },
{ "type": "Feature", "properties": { "ID": 0, "NAME": "Nakuru Day Primary School", "REGVOTER97": 0, "REGVOTER02": 0, "REGVOTER07": 8651, "POLSTATION": null, "STAT_NR": 9, "MALE": 5735, "FEMALE": 2916 }, "geometry": { "type": "Point", "coordinates": [ 36.067995711889516, -0.293464030543656 ] } },
{ "type": "Feature", "properties": { "ID": 0, "NAME": "St Paul Primary School", "REGVOTER97": 0, "REGVOTER02": 0, "REGVOTER07": 5121, "POLSTATION": null, "STAT_NR": 12, "MALE": 3173, "FEMALE": 2037 }, "geometry": { "type": "Point", "coordinates": [ 36.078225273211736, -0.295927094560584 ] } },
{ "type": "Feature", "properties": { "ID": 0, "NAME": "St. Teresa Primary School", "REGVOTER97": 0, "REGVOTER02": 0, "REGVOTER07": 5690, "POLSTATION": null, "STAT_NR": 19, "MALE": 3294, "FEMALE": 2396 }, "geometry": { "type": "Point", "coordinates": [ 36.085032322652701, -0.298127589710151 ] } },
{ "type": "Feature", "properties": { "ID": 0, "NAME": "KIsulisuli Primary Shool", "REGVOTER97": 0, "REGVOTER02": 0, "REGVOTER07": 2987, "POLSTATION": null, "STAT_NR": 18, "MALE": 1830, "FEMALE": 1157 }, "geometry": { "type": "Point", "coordinates": [ 36.08997675463899, -0.291258267423712 ] } },
{ "type": "Feature", "properties": { "ID": 0, "NAME": "Jamhuri Primary School", "REGVOTER97": 0, "REGVOTER02": 0, "REGVOTER07": 4654, "POLSTATION": null, "STAT_NR": 17, "MALE": 2732, "FEMALE": 1922 }, "geometry": { "type": "Point", "coordinates": [ 36.082819017663901, -0.286652395367404 ] } },
{ "type": "Feature", "properties": { "ID": 0, "NAME": "Free-Area Social Mun.Social Ha", "REGVOTER97": 0, "REGVOTER02": 0, "REGVOTER07": 8004, "POLSTATION": null, "STAT_NR": 21, "MALE": 4759, "FEMALE": 3245 }, "geometry": { "type": "Point", "coordinates": [ 36.118231450588532, -0.293593672029267 ] } },
{ "type": "Feature", "properties": { "ID": 0, "NAME": "Lanet Primary School", "REGVOTER97": 0, "REGVOTER02": 0, "REGVOTER07": 797, "POLSTATION": null, "STAT_NR": 39, "MALE": 414, "FEMALE": 383 }, "geometry": { "type": "Point", "coordinates": [ 36.150815193516337, -0.291915889594562 ] } },
{ "type": "Feature", "properties": { "ID": 0, "NAME": "Nakuru High School", "REGVOTER97": 0, "REGVOTER02": 0, "REGVOTER07": 5157, "POLSTATION": null, "STAT_NR": 16, "MALE": 3078, "FEMALE": 2079 }, "geometry": { "type": "Point", "coordinates": [ 36.096413023108013, -0.276833279046007 ] } },
{ "type": "Feature", "properties": { "ID": 0, "NAME": "Milimani Primary School", "REGVOTER97": 0, "REGVOTER02": 0, "REGVOTER07": 1311, "POLSTATION": null, "STAT_NR": 31, "MALE": 707, "FEMALE": 604 }, "geometry": { "type": "Point", "coordinates": [ 36.056108706689173, -0.274628740338055 ] } },
{ "type": "Feature", "properties": { "ID": 0, "NAME": "Moi Secondary School", "REGVOTER97": 0, "REGVOTER02": 0, "REGVOTER07": 6220, "POLSTATION": null, "STAT_NR": 8, "MALE": 3629, "FEMALE": 2591 }, "geometry": { "type": "Point", "coordinates": [ 36.064002836940141, -0.279223963154472 ] } },
{ "type": "Feature", "properties": { "ID": 0, "NAME": "Langa Langa Primary School", "REGVOTER97": 0, "REGVOTER02": 0, "REGVOTER07": 9704, "POLSTATION": null, "STAT_NR": 14, "MALE": 5005, "FEMALE": 4699 }, "geometry": { "type": "Point", "coordinates": [ 36.070198097963782, -0.3050209426667 ] } },
{ "type": "Feature", "properties": { "ID": 0, "NAME": "Mwariki Primary School", "REGVOTER97": 0, "REGVOTER02": 0, "REGVOTER07": 2378, "POLSTATION": null, "STAT_NR": 29, "MALE": 1141, "FEMALE": 1237 }, "geometry": { "type": "Point", "coordinates": [ 36.064616621970188, -0.31633410694213 ] } },
{ "type": "Feature", "properties": { "ID": 0, "NAME": "Kibowen Komen Primary school", "REGVOTER97": 0, "REGVOTER02": 0, "REGVOTER07": 2036, "POLSTATION": null, "STAT_NR": 28, "MALE": 1256, "FEMALE": 780 }, "geometry": { "type": "Point", "coordinates": [ 36.053223747480075, -0.310958816145828 ] } },
{ "type": "Feature", "properties": { "ID": 0, "NAME": "Koinange Primary School", "REGVOTER97": 0, "REGVOTER02": 0, "REGVOTER07": 6614, "POLSTATION": null, "STAT_NR": 6, "MALE": 4157, "FEMALE": 2457 }, "geometry": { "type": "Point", "coordinates": [ 36.054961373370496, -0.293903236987908 ] } },
{ "type": "Feature", "properties": { "ID": 0, "NAME": "Mama Ngina Primary School", "REGVOTER97": 0, "REGVOTER02": 0, "REGVOTER07": 7031, "POLSTATION": null, "STAT_NR": 7, "MALE": 3958, "FEMALE": 3073 }, "geometry": { "type": "Point", "coordinates": [ 36.063238229243986, -0.294837572632128 ] } },
{ "type": "Feature", "properties": { "ID": 0, "NAME": "Heshima Primary School", "REGVOTER97": 0, "REGVOTER02": 0, "REGVOTER07": 6878, "POLSTATION": null, "STAT_NR": 5, "MALE": 4133, "FEMALE": 2745 }, "geometry": { "type": "Point", "coordinates": [ 36.051927275478747, -0.299380049105126 ] } },
{ "type": "Feature", "properties": { "ID": 0, "NAME": "Nakuru West Secondary School", "REGVOTER97": 0, "REGVOTER02": 0, "REGVOTER07": 4377, "POLSTATION": null, "STAT_NR": 2, "MALE": 2964, "FEMALE": 1413 }, "geometry": { "type": "Point", "coordinates": [ 36.042178509656161, -0.299702399364289 ] } },
{ "type": "Feature", "properties": { "ID": 0, "NAME": "Kapkures Comm.Health Centre", "REGVOTER97": 0, "REGVOTER02": 0, "REGVOTER07": 1605, "POLSTATION": null, "STAT_NR": 23, "MALE": 936, "FEMALE": 669 }, "geometry": { "type": "Point", "coordinates": [ 36.03863273297263, -0.3084445770497 ] } },
{ "type": "Feature", "properties": { "ID": 0, "NAME": "Mogoon Primary School", "REGVOTER97": 0, "REGVOTER02": 0, "REGVOTER07": 716, "POLSTATION": null, "STAT_NR": 22, "MALE": 395, "FEMALE": 321 }, "geometry": { "type": "Point", "coordinates": [ 36.026031158296696, -0.302585154616979 ] } },
{ "type": "Feature", "properties": { "ID": 0, "NAME": "Ingobor Primary School", "REGVOTER97": 0, "REGVOTER02": 0, "REGVOTER07": 603, "POLSTATION": null, "STAT_NR": 26, "MALE": 332, "FEMALE": 271 }, "geometry": { "type": "Point", "coordinates": [ 36.019059399946087, -0.312486604296927 ] } },
{ "type": "Feature", "properties": { "ID": 0, "NAME": "Kelelwet Primary School", "REGVOTER97": 0, "REGVOTER02": 0, "REGVOTER07": 601, "POLSTATION": null, "STAT_NR": 25, "MALE": 311, "FEMALE": 290 }, "geometry": { "type": "Point", "coordinates": [ 36.034648927913835, -0.346490371516202 ] } },
{ "type": "Feature", "properties": { "ID": 0, "NAME": "Kingonor Primary School", "REGVOTER97": 0, "REGVOTER02": 0, "REGVOTER07": 232, "POLSTATION": null, "STAT_NR": 27, "MALE": 139, "FEMALE": 93 }, "geometry": { "type": "Point", "coordinates": [ 36.039504769606289, -0.367839787720666 ] } },
{ "type": "Feature", "properties": { "ID": 0, "NAME": "Barut Primary School", "REGVOTER97": 0, "REGVOTER02": 0, "REGVOTER07": 1945, "POLSTATION": null, "STAT_NR": 24, "MALE": 1079, "FEMALE": 866 }, "geometry": { "type": "Point", "coordinates": [ 36.054934557688533, -0.325946504504531 ] } },
{ "type": "Feature", "properties": { "ID": 0, "NAME": "Madaraka Primary School", "REGVOTER97": 0, "REGVOTER02": 0, "REGVOTER07": 3971, "POLSTATION": null, "STAT_NR": 20, "MALE": 2191, "FEMALE": 1780 }, "geometry": { "type": "Point", "coordinates": [ 36.129676921586722, -0.298946317488764 ] } },
{ "type": "Feature", "properties": { "ID": 0, "NAME": "Naka Primary School", "REGVOTER97": 0, "REGVOTER02": 0, "REGVOTER07": 200, "POLSTATION": null, "STAT_NR": 38, "MALE": 116, "FEMALE": 84 }, "geometry": { "type": "Point", "coordinates": [ 36.104540915054059, -0.288862212086432 ] } },
{ "type": "Feature", "properties": { "ID": 0, "NAME": "Nairobi Road Primary School", "REGVOTER97": 0, "REGVOTER02": 0, "REGVOTER07": 902, "POLSTATION": null, "STAT_NR": 36, "MALE": 447, "FEMALE": 455 }, "geometry": { "type": "Point", "coordinates": [ 36.143245229481273, -0.339762768620234 ] } },
{ "type": "Feature", "properties": { "ID": 0, "NAME": "Mburu Gichua Primary School", "REGVOTER97": 0, "REGVOTER02": 0, "REGVOTER07": 637, "POLSTATION": null, "STAT_NR": 35, "MALE": 315, "FEMALE": 322 }, "geometry": { "type": "Point", "coordinates": [ 36.152295186243784, -0.3694412570452 ] } },
{ "type": "Feature", "properties": { "ID": 0, "NAME": "Rhino Primary Schooh", "REGVOTER97": 0, "REGVOTER02": 0, "REGVOTER07": 575, "POLSTATION": null, "STAT_NR": 34, "MALE": 267, "FEMALE": 308 }, "geometry": { "type": "Point", "coordinates": [ 36.149986044088948, -0.416084193548582 ] } },
{ "type": "Feature", "properties": { "ID": 0, "NAME": "St.John Primary School", "REGVOTER97": 0, "REGVOTER02": 0, "REGVOTER07": 1676, "POLSTATION": null, "STAT_NR": 37, "MALE": 846, "FEMALE": 830 }, "geometry": { "type": "Point", "coordinates": [ 36.115552121321876, -0.276651198498154 ] } },
{ "type": "Feature", "properties": { "ID": 0, "NAME": "Race Track Primary School", "REGVOTER97": 0, "REGVOTER02": 0, "REGVOTER07": 1222, "POLSTATION": null, "STAT_NR": 33, "MALE": 593, "FEMALE": 629 }, "geometry": { "type": "Point", "coordinates": [ 36.070103116500277, -0.309697562213634 ] } },
{ "type": "Feature", "properties": { "ID": 0, "NAME": "Menengai High School", "REGVOTER97": 0, "REGVOTER02": 0, "REGVOTER07": 1337, "POLSTATION": null, "STAT_NR": 32, "MALE": 746, "FEMALE": 591 }, "geometry": { "type": "Point", "coordinates": [ 36.078079124115497, -0.286149140720091 ] } },
{ "type": "Feature", "properties": { "ID": 0, "NAME": "Muslim Primary School", "REGVOTER97": 0, "REGVOTER02": 0, "REGVOTER07": 400, "POLSTATION": null, "STAT_NR": 41, "MALE": 266, "FEMALE": 134 }, "geometry": { "type": "Point", "coordinates": [ 36.051508650891414, -0.294009007505839 ] } },
{ "type": "Feature", "properties": { "ID": 0, "NAME": "County Council Hall", "REGVOTER97": 0, "REGVOTER02": 0, "REGVOTER07": 6482, "POLSTATION": null, "STAT_NR": 4, "MALE": 4475, "FEMALE": 2007 }, "geometry": { "type": "Point", "coordinates": [ 36.061701740427011, -0.286399430121887 ] } },
{ "type": "Feature", "properties": { "ID": 0, "NAME": "Uhuru Primary School", "REGVOTER97": 0, "REGVOTER02": 0, "REGVOTER07": 221, "POLSTATION": null, "STAT_NR": 30, "MALE": 116, "FEMALE": 105 }, "geometry": { "type": "Point", "coordinates": [ 36.026532294125026, -0.277105541327414 ] } },
{ "type": "Feature", "properties": { "ID": 0, "NAME": "Technology Farm Nursery School", "REGVOTER97": 0, "REGVOTER02": 0, "REGVOTER07": 474, "POLSTATION": null, "STAT_NR": 1, "MALE": 301, "FEMALE": 173 }, "geometry": { "type": "Point", "coordinates": [ 36.012096082944048, -0.294713420665642 ] } },
{ "type": "Feature", "properties": { "ID": 0, "NAME": "Lalwet Dispenary", "REGVOTER97": 0, "REGVOTER02": 0, "REGVOTER07": 408, "POLSTATION": null, "STAT_NR": 40, "MALE": 221, "FEMALE": 187 }, "geometry": { "type": "Point", "coordinates": [ 36.031040460093891, -0.327156335508554 ] } },
{ "type": "Feature", "properties": { "ID": 0, "NAME": "Kaptembwa Primary School", "REGVOTER97": 0, "REGVOTER02": 0, "REGVOTER07": 3967, "POLSTATION": null, "STAT_NR": 3, "MALE": 2422, "FEMALE": 1545 }, "geometry": { "type": "Point", "coordinates": [ 36.051208006704542, -0.299167141848136 ] } }
]
}
